{
  "dealers": {
    "Alaska": [],
    "Alabama": [],
    "Arkansas": [],
    "Arizona": [],
    "California": [
      {
        "name": "Central Valley Builders Supply",
        "address": {
          "street1": "1804 Soscol Ave",
          "street2": "Suite 205",
          "city": "Napa",
          "state": "CA",
          "zip": "94559"
        },
        "url": "http://www.cvbs.com",
        "map": "https://goo.gl/maps/pr9rRs5za822",
        "lat": "38.307541",
        "lng": "-122.284338"
      },
      {
        "name": "Daylight Home",
        "address": {
          "street1": "1701 Monterey St.",
          "street2": "",
          "city": "San Luis Obispo",
          "state": "CA",
          "zip": "93401"
        },
        "url": "http://www.daylighthome.com",
        "map": "https://goo.gl/maps/ZcF3zeHUHfG2",
        "lat": "35.288137",
        "lng": "-120.652063"
      },
      {
        "name": "Fishbecks",
        "address": {
          "street1": "150 South Raymond Ave",
          "street2": "",
          "city": "Pasadena",
          "state": "CA",
          "zip": "91105"
        },
        "url": "http://www.fishbecks.com",
        "map": "https://goo.gl/maps/pYvZuAi3C8T2",
        "lat": "34.143530",
        "lng": "-118.148604"
      },
      {
        "name": "The Garden Company",
        "address": {
          "street1": "2218 Mission Street",
          "street2": "",
          "city": "Santa Cruz",
          "state": "CA",
          "zip": "95060"
        },
        "url": "http://www.thegardenco.com",
        "map": "https://goo.gl/maps/JVrSbfrUtVz",
        "lat": "36.962469",
        "lng": "-122.045776"
      },
      {
        "name": "Wisteria Antiques and Designs, Inc.",
        "address": {
          "street1": "5870 Soquel Drive",
          "street2": "",
          "city": "Soquel",
          "state": "CA",
          "zip": "95073"
        },
        "url": "http://www.wisteriaantiques.net",
        "map": "https://goo.gl/maps/P4ZMct5XAet",
        "lat": "36.9880268",
        "lng": "-121.9392609"
      }
    ],
    "Colorado": [
      {
        "name": "McGuckin Hardware",
        "address": {
          "street1": "2525 Arapahoe Ave",
          "street2": "",
          "city": "Boulder",
          "state": "CO",
          "zip": "80302-9359"
        },
        "url": "http://www.mcguckin.com",
        "map": "https://goo.gl/maps/f4BvzwfJvVT2",
        "lat": "40.0161663",
        "lng": "-105.2641269"
      },
      {
        "name": "The Planted Earth of Carbondale",
        "address": {
          "street1": "12744 CO-82",
          "street2": "",
          "city": "Aspen",
          "state": "CO",
          "zip": "81612"
        },
        "url": "http://www.theplanted-earth.com",
        "map": "https://goo.gl/maps/6vPc1wUoRyt",
        "lat": "39.417464",
        "lng": "-107.2088787"
      }
    ],
    "Connecticut": [
      {
        "name": "Logee's Greenhouses, Ltd.",
        "address": {
          "street1": "141 North Street",
          "street2": "",
          "city": "Danielson",
          "state": "CT",
          "zip": "06239"
        },
        "url": "http://www.logees.com",
        "map": "https://goo.gl/maps/vtAkcTddi9y",
        "lat": "41.8154977",
        "lng": "-71.8846393"
      }
    ],
    "District of Columbia": [],
    "Delaware": [],
    "Florida": [
      {
        "name": "Your Farm & Garden",
        "address": {
          "street1": "735 S. Beneva Rd.",
          "street2": "",
          "city": "Sarasota",
          "state": "FL",
          "zip": "34232"
        },
        "url": "http://www.yourfarmandgarden.com",
        "map": "https://goo.gl/maps/i3iwBNtvKKs",
        "lat": "27.3295377",
        "lng": "-82.4990259"
      }
    ],
    "Georgia": [],
    "Hawaii": [
      {
        "name": "Kula Hardware",
        "address": {
          "street1": "3100 Lower Kula Rd.",
          "street2": "",
          "city": "Kula",
          "state": "HI",
          "zip": "96790"
        },
        "url": "http://www.truevalue.com/kulahardware/Home.aspx",
        "map": "https://goo.gl/maps/yrnbnqmKMQu",
        "lat": "20.7767711",
        "lng": "-156.3283285"
      }
    ],
    "Iowa": [],
    "Idaho": [],
    "Illinois": [
      {
        "name": "Cedar Lake Gardens & Gifts",
        "address": {
          "street1": "3231 E Mound Rd.",
          "street2": "",
          "city": "Decatur",
          "state": "IL",
          "zip": "62521"
        },
        "url": "http://www.cedarlakegardens.com",
        "map": "https://goo.gl/maps/C5UoFQTqr982",
        "lat": "39.892674",
        "lng": "-88.9125677"
      },
      {
        "name": "City Escape Garden Center & Design Studio",
        "address": {
          "street1": "3022 W Lake Street",
          "street2": "",
          "city": "Chicago",
          "state": "IL",
          "zip": "60612"
        },
        "url": "http://www.cityescape.biz",
        "map": "https://goo.gl/maps/HeCAUyMaB5B2",
        "lat": "41.8833509",
        "lng": "-87.6992195"
      },
      {
        "name": "Country Arbors Nursery Inc",
        "address": {
          "street1": "1742 County Road 1400 N.",
          "street2": "",
          "city": "Urbana",
          "state": "IL",
          "zip": "61802"
        },
        "url": "http://www.countryarbors.com",
        "map": "https://goo.gl/maps/AYqNzEiuS932",
        "lat": "40.0847284",
        "lng": "-88.1379349"
      },
      {
        "name": "Gethsemane",
        "address": {
          "street1": "5739 North Clark Street",
          "street2": "",
          "city": "Chicago",
          "state": "IL",
          "zip": "60660"
        },
        "url": "http://www.gethsemanegardens.com",
        "map": "https://goo.gl/maps/H3e9TZ5wAsK2",
        "lat": "41.9871179",
        "lng": "-87.6715345"
      },
      {
        "name": "Hornbaker Gardens",
        "address": {
          "street1": "22937 1140 N Ave",
          "street2": "",
          "city": "Princeton",
          "state": "IL",
          "zip": "61356"
        },
        "url": "http://www.hornbakergardens.com",
        "map": "https://goo.gl/maps/zUznAiSxoeK2",
        "lat": "41.3076277",
        "lng": "-89.4223561"
      },
      {
        "name": "LaGrange Park Ace Hardware",
        "address": {
          "street1": "900 E. 31st Street",
          "street2": "",
          "city": "LaGrange Park",
          "state": "IL",
          "zip": "60526"
        },
        "url": "http://www.acehardware.com",
        "map": "https://goo.gl/maps/V2zJGoeySBy",
        "lat": "41.8343789",
        "lng": "-87.8662339"
      },
      {
        "name": "Prairie Gardens/PGI Sales",
        "address": {
          "street1": "3000 W Springfield Ave.",
          "street2": "",
          "city": "Champaign",
          "state": "IL",
          "zip": "61822"
        },
        "url": "http://www.prairiegardens.com",
        "map": "https://goo.gl/maps/nr7nhiJwnn82",
        "lat": "40.1137996",
        "lng": "-88.2989526"
      }
    ],
    "Indiana": [
      {
        "name": "Eagle Creek Nursery",
        "address": {
          "street1": "8160 Lafayette Rd.",
          "street2": "",
          "city": "Indianapolis",
          "state": "IN",
          "zip": "46278"
        },
        "url": "http://www.eaglecreeknursery.com",
        "map": "https://goo.gl/maps/MZChkPkKAt62",
        "lat": "39.9015511",
        "lng": "-86.3080373"
      },
      {
        "name": "Small's Garden Center",
        "address": {
          "street1": "1551 E HWY 20",
          "street2": "",
          "city": "LaPorte",
          "state": "IN",
          "zip": "46350"
        },
        "url": "http://www.smallsgardencenter.com",
        "map": "https://goo.gl/maps/NUkD8BJC5SB2",
        "lat": "41.6055074",
        "lng": "-86.7166277"
      }
    ],
    "Kansas": [
      {
        "name": "McLiney Lumber & Supply",
        "address": {
          "street1": "4200 West 83rd Street",
          "street2": "Suite 200",
          "city": "Prairie Village",
          "state": "KS",
          "zip": "66208"
        },
        "url": "http://www.homebaselumber.com",
        "map": "https://goo.gl/maps/HtGbToPKpVo",
        "lat": "38.9791256",
        "lng": "-94.6360521"
      }
    ],
    "Kentucky": [
      {
        "name": "Redmonds Garden Landscape & Gift Center",
        "address": {
          "street1": "4432 Old Nicholasville Rd.",
          "street2": "",
          "city": "Lexington",
          "state": "KY",
          "zip": "40515"
        },
        "url": "http://www.redmondsgardencenter.com",
        "map": "https://goo.gl/maps/bJbg24gY9uL2",
        "lat": "37.968249",
        "lng": "-84.5326627"
      },
      {
        "name": "Secret Garden Garden and Home",
        "address": {
          "street1": "1201 Herr Lane Suite 160",
          "street2": "",
          "city": "Louisville",
          "state": "KY",
          "zip": "40222"
        },
        "url": "http://www.secretgardenshop.com",
        "map": "https://goo.gl/maps/4LGF1qKiLKS2",
        "lat": "38.2672942",
        "lng": "-85.6146275"
      },
      {
        "name": "SilverCliff Landscaping Inc.",
        "address": {
          "street1": "1199 Barnes Mill Rd.",
          "street2": "",
          "city": "Richmond",
          "state": "KY",
          "zip": "40475"
        },
        "url": "http://www.silverclifflandscaping.com",
        "map": "https://goo.gl/maps/CQvfY42jKL92",
        "lat": "37.7356499",
        "lng": "-84.3378968"
      }
    ],
    "Louisiana": [],
    "Massachusetts": [
      {
        "name": "Hadley Garden Center",
        "address": {
          "street1": "Route 9",
          "street2": "285 Russell Street",
          "city": "Hadley",
          "state": "MA",
          "zip": "01035"
        },
        "url": "http://www.hadleygardencenter.com",
        "map": "https://goo.gl/maps/Ag3jnzn1eUT2",
        "lat": "42.3522327",
        "lng": "-72.5631887"
      },
      {
        "name": "Pemberton Garden Services",
        "address": {
          "street1": "2225 Massachusetts Ave.",
          "street2": "",
          "city": "Cambridge",
          "state": "MA",
          "zip": "02140"
        },
        "url": "http://www.pembertongardening.com",
        "map": "https://goo.gl/maps/cBKiK2XqtV72",
        "lat": "42.3938285",
        "lng": "-71.1279618"
      },
      {
        "name": "Russell's Garden Center",
        "address": {
          "street1": "397 Boston Post Rd",
          "street2": "",
          "city": "Wayland",
          "state": "MA",
          "zip": "01778"
        },
        "url": "http://www.russellsgardencenter.com",
        "map": "https://goo.gl/maps/fRqpcEm7hhw",
        "lat": "42.3629099",
        "lng": "-71.3721271"
      },
      {
        "name": "Sixteen Acres Garden Store",
        "address": {
          "street1": "1359 Wilbraham Rd",
          "street2": "",
          "city": "Springfield",
          "state": "MA",
          "zip": "01119"
        },
        "url": "http://www.16acresgardencenter.com",
        "map": "https://goo.gl/maps/nSYvQ2x3eNN2",
        "lat": "42.116613",
        "lng": "-72.5177537"
      },
      {
        "name": "Smith Bodfish and Swift",
        "address": {
          "street1": "480 State Road",
          "street2": "",
          "city": "Vineyardhaven",
          "state": "MA",
          "zip": "02568"
        },
        "url": "",
        "map": "https://goo.gl/maps/fMizLSdzbFD2",
        "lat": "41.4447162",
        "lng": "-70.6200972"
      },
      {
        "name": "Ward's Nursery Inc.",
        "address": {
          "street1": "600 S. Main St.",
          "street2": "",
          "city": "Great Barrington",
          "state": "MA",
          "zip": "01230"
        },
        "url": "http://www.wardsnursery.com",
        "map": "https://goo.gl/maps/JQ4RiTqiHyq",
        "lat": "42.1847048",
        "lng": "-73.3670855"
      }
    ],
    "Maryland": [
      {
        "name": "Accent Supply",
        "address": {
          "street1": "1300 Washington Rd.",
          "street2": "",
          "city": "Westminster",
          "state": "MD",
          "zip": "21157"
        },
        "url": "http://www.accentsupply.com",
        "map": "https://goo.gl/maps/PZYUsKjuXAA2",
        "lat": "39.5391509",
        "lng": "-76.9972537"
      },
      {
        "name": "Bru-Mar Gardens LLC",
        "address": {
          "street1": "1009 Bay Ridge Rd.",
          "street2": "",
          "city": "Annapolis",
          "state": "MD",
          "zip": "21403"
        },
        "url": "http://www.brumargardens.com",
        "map": "https://goo.gl/maps/iwqg47VD3xN2",
        "lat": "38.9444903",
        "lng": "-76.4873147"
      }
    ],
    "Maine": [
      {
        "name": "Shaker Furniture of Maine",
        "address": {
          "street1": "715 US Route 1",
          "street2": "",
          "city": "Scarborough",
          "state": "ME",
          "zip": "04074"
        },
        "url": "http://www.shakerfurniture.me",
        "map": "https://goo.gl/maps/6sYWoXnc7cF2",
        "lat": "43.5632485",
        "lng": "-70.4003754"
      }
    ],
    "Michigan": [
      {
        "name": "Downtown Home and Garden",
        "address": {
          "street1": "210 South Ashley",
          "street2": "",
          "city": "Ann Arbor",
          "state": "MI",
          "zip": "48104"
        },
        "url": "http://www.downtownhomeandgarden.com",
        "map": "https://goo.gl/maps/g9uobocAGou",
        "lat": "42.2801312",
        "lng": "-83.7523442"
      },
      {
        "name": "English Gardens",
        "address": {
          "street1": "6346 Orchard Lake #207",
          "street2": "",
          "city": "West Bloomfield",
          "state": "MI",
          "zip": "48322"
        },
        "url": "http://www.englishgardens.com",
        "map": "https://goo.gl/maps/Bkg9XuVcEW22",
        "lat": "2.5450952",
        "lng": "-83.3636128"
      }
    ],
    "Minnesota": [],
    "Missouri": [
      {
        "name": "Suburban Lawn & Garden",
        "address": {
          "street1": "4 W. 135th Street",
          "street2": "",
          "city": "Kansas City",
          "state": "MO",
          "zip": "64148"
        },
        "url": "http://www.suburbanlg.com",
        "map": "https://goo.gl/maps/BZpx3UpmrU42",
        "lat": "38.8829221",
        "lng": "-94.5980212"
      }
    ],
    "Mississippi": [],
    "Montana": [
      {
        "name": "Garden Ave. Greenhouse",
        "address": {
          "street1": "219 Garden Ave",
          "street2": "",
          "city": "Billings",
          "state": "MT",
          "zip": "59101"
        },
        "url": "http://www.gardenavenuegreenhouse.com",
        "map": "https://goo.gl/maps/2EVhDimn92s",
        "lat": "45.764984",
        "lng": "-108.4838237"
      }
    ],
    "North Carolina": [
      {
        "name": "Greenstate Landscaping",
        "address": {
          "street1": "2643 W Carthage Rd.",
          "street2": "",
          "city": "Lumberton",
          "state": "NC",
          "zip": "28360"
        },
        "url": "http://www.greenstatelandscaping.com",
        "map": "https://goo.gl/maps/dM9gqeiJjso",
        "lat": "34.663596",
        "lng": "-79.0430627"
      }
    ],
    "North Dakota": [
      {
        "name": "Hinrichs Supervalu",
        "address": {
          "street1": "210 8th St. East",
          "street2": "",
          "city": "Harvey",
          "state": "ND",
          "zip": "58341"
        },
        "url": "http://www.hinrichssupervalu.com",
        "map": "https://goo.gl/maps/uuPaqiTjSEm",
        "lat": "47.7699023",
        "lng": "-99.9355705"
      }
    ],
    "Nebraska": [],
    "New Hampshire": [
      {
        "name": "Landscapers Depot",
        "address": {
          "street1": "59 Route 125",
          "street2": "",
          "city": "Kingston",
          "state": "NH",
          "zip": "03848"
        },
        "url": "http://www.landscapersdepot.com",
        "map": "https://goo.gl/maps/J9ohs1fBCcE2",
        "lat": "42.9092326",
        "lng": "-71.0689502"
      }
    ],
    "New Jersey": [
      {
        "name": "Eagle Fence and Supply",
        "address": {
          "street1": "3220 Rt 22 West",
          "street2": "",
          "city": "Branchburg",
          "state": "NJ",
          "zip": "08876"
        },
        "url": "http://www.eaglefence.com",
        "map": "https://goo.gl/maps/Y5nUUB8DVS62",
        "lat": "40.605035",
        "lng": "-74.6966067"
      },
      {
        "name": "GroRite",
        "address": {
          "street1": "30 Hillview Rd.",
          "street2": "",
          "city": "Lincoln Park",
          "state": "NJ",
          "zip": "07035"
        },
        "url": "http://www.grorite.com",
        "map": "https://goo.gl/maps/VbVXh6nRyMu",
        "lat": "40.942709",
        "lng": "-74.3137967"
      }
    ],
    "New Mexico": [],
    "Nevada": [],
    "New York": [
      {
        "name": "East End Outdoor Supply Co.",
        "address": {
          "street1": "476 Montauk Highway",
          "street2": "",
          "city": "East Quogue",
          "state": "NY",
          "zip": "11942"
        },
        "url": "http://www.eastendoutdoor.com",
        "map": "https://goo.gl/maps/D3FsumQ5XiB2",
        "lat": "40.844992",
        "lng": "-72.5812567"
      },
      {
        "name": "East Wind Landscape Nursery",
        "address": {
          "street1": "5614 State Rt. 19",
          "street2": "",
          "city": "Belmont",
          "state": "NY",
          "zip": "14813"
        },
        "url": "http://www.eastwindnursery.com",
        "map": "https://goo.gl/maps/iZzyPEX4uCo",
        "lat": "42.2327542",
        "lng": "-78.0531427"
      },
      {
        "name": "Ithaca Agway Farm & Home",
        "address": {
          "street1": "213 S. Fulton Street",
          "street2": "",
          "city": "Ithaca",
          "state": "NY",
          "zip": "14850"
        },
        "url": "http://www.ithacaagway.com",
        "map": "https://goo.gl/maps/eHsunxZ4Wbt",
        "lat": "42.4377398",
        "lng": "-76.5120113"
      },
      {
        "name": "Perennial Gardens Inc.",
        "address": {
          "street1": "414 Old Post Rd.",
          "street2": "",
          "city": "Bedford",
          "state": "NY",
          "zip": "10506"
        },
        "url": "http://www.perennialgardensbedford.com",
        "map": "https://goo.gl/maps/waJcBrZMdio",
        "lat": "41.1948902",
        "lng": "-73.6582182"
      },
      {
        "name": "Seneca Greenhouse",
        "address": {
          "street1": "2250 Transit Rd.",
          "street2": "",
          "city": "West Seneca",
          "state": "NY",
          "zip": "14224"
        },
        "url": "http://www.senecagreenhouse.com",
        "map": "https://goo.gl/maps/AkL3LgAqrGm",
        "lat": "42.828623",
        "lng": "-78.6997507"
      }
    ],
    "Ohio": [
      {
        "name": "Bremec Garden Center",
        "address": {
          "street1": "12265 Chillicothe Rd.",
          "street2": "",
          "city": "Chesterland",
          "state": "OH",
          "zip": "44026"
        },
        "url": "http://www.bremec.com",
        "map": "https://goo.gl/maps/hPQZ2znog7K2",
        "lat": "41.536474",
        "lng": "-81.3382917"
      }
    ],
    "Oklahoma": [],
    "Oregon": [
      {
        "name": "Bamboo Craftsman Co.",
        "address": {
          "street1": "2104 N. Willis Blvd.",
          "street2": "",
          "city": "Portland",
          "state": "OR",
          "zip": "97217"
        },
        "url": "http://www.bamboocraftsman.com",
        "map": "https://goo.gl/maps/5zbaWqFfnAS2",
        "lat": "45.5836052",
        "lng": "-122.6903416"
      },
      {
        "name": "Consigned Home Furnishings",
        "address": {
          "street1": "439 SE Grand",
          "street2": "",
          "city": "Portland",
          "state": "OR",
          "zip": "97214"
        },
        "url": "http://www.whatsnewfurniture.com",
        "map": "https://goo.gl/maps/3Sby6xdDyMR2",
        "lat": "45.5195869",
        "lng": "-122.6632521"
      },
      {
        "name": "Essentials Home Decor",
        "address": {
          "street1": "114 W. Main St",
          "street2": " ",
          "city": "Medford",
          "state": "OR",
          "zip": "97504"
        },
        "url": "http://www.essentialshomedecor.com",
        "map": "https://goo.gl/maps/7UFiei2CmYF2",
        "lat": "42.3254845",
        "lng": "-122.8771057"
      },
      {
        "name": "Garden Fever",
        "address": {
          "street1": "3433 NE 24th Ave",
          "street2": "",
          "city": "Portland",
          "state": "OR",
          "zip": "97212"
        },
        "url": "http://www.gardenfever.com",
        "map": "https://goo.gl/maps/bvNzzr6yMnp",
        "lat": "45.5479168",
        "lng": "-122.6435114"
      },
      {
        "name": "Hubbards Home Center",
        "address": {
          "street1": "1750 Delta Waters Rd.",
          "street2": " ",
          "city": "Medford",
          "state": "OR",
          "zip": "97504"
        },
        "url": "http://www.hubbardshomecenter.com",
        "map": "https://goo.gl/maps/cYa4UmMHNSR2",
        "lat": "42.3613289",
        "lng": "-122.8622005"
      },
      {
        "name": "Kitchen Kaboodle",
        "address": {
          "street1": "2344 NW 21st Ave.",
          "street2": "",
          "city": "Portland",
          "state": "OR",
          "zip": "97209"
        },
        "url": "http://www.kitchenkaboodle.com",
        "map": "https://goo.gl/maps/vP1GTaFExGD2",
        "lat": "45.5399379",
        "lng": "-122.6966485"
      },
      {
        "name": "Natural Furniture LTD",
        "address": {
          "street1": "800 NE Broadway",
          "street2": "",
          "city": "Portland",
          "state": "OR",
          "zip": "97232"
        },
        "url": "http://www.naturalunfinishedfurniture.com",
        "map": "https://goo.gl/maps/fSy3UtcD7pS2",
        "lat": "45.5348936",
        "lng": "-122.6595559"
      },
      {
        "name": "Portland Nursery",
        "address": {
          "street1": "5050 SE Stark St.",
          "street2": "",
          "city": "Portland",
          "state": "OR",
          "zip": "97215-1749"
        },
        "url": "http://www.portlandnursery.com",
        "map": "https://goo.gl/maps/JaWEpFywtUw",
        "lat": "45.5187779",
        "lng": "-122.6132226"
      },
      {
        "name": "Sellwood Furniture",
        "address": {
          "street1": "8821 SE 17th Ave",
          "street2": "",
          "city": "Portland",
          "state": "OR",
          "zip": "97202"
        },
        "url": "http://www.sellwoodfurniture.com",
        "map": "https://goo.gl/maps/eJhJjPeTDDy",
        "lat": "45.4589142",
        "lng": "-122.6496067"
      },
      {
        "name": "Uptown Hardware Inc",
        "address": {
          "street1": "1621 NW Glisan",
          "street2": "",
          "city": "Portland",
          "state": "OR",
          "zip": "97209"
        },
        "url": "http://www.uptownhardwareinc.com",
        "map": "https://goo.gl/maps/D3Qd1Zh1TSp",
        "lat": "45.5268282",
        "lng": "-122.6899358"
      }
    ],
    "Pennsylvania": [],
    "Puerto Rico": [],
    "Rhode Island": [],
    "South Carolina": [],
    "South Dakota": [],
    "Tennessee": [],
    "Texas": [
      {
        "name": "Buchanan's Native Plants",
        "address": {
          "street1": "611 E. 11th Street",
          "street2": "",
          "city": "Houston",
          "state": "TX",
          "zip": "77008"
        },
        "url": "http://www.buchanansplants.com",
        "map": "https://goo.gl/maps/Y8Jwuy1dxVP2",
        "lat": "29.7910144",
        "lng": "-95.3935866"
      },
      {
        "name": "Redenta's Garden",
        "address": {
          "street1": "5111 West Arkansas Lane",
          "street2": "",
          "city": "Arlington",
          "state": "TX",
          "zip": "76016"
        },
        "url": "http://www.redentas.com",
        "map": "https://goo.gl/maps/p7jbrATae392",
        "lat": "32.7077991",
        "lng": "-97.1885875"
      },
      {
        "name": "Treehouse, Inc.",
        "address": {
          "street1": "4477 S Lamar",
          "street2": "#600",
          "city": "Austin",
          "state": "TX",
          "zip": "78745"
        },
        "url": "http://www.tree.house",
        "map": "https://goo.gl/maps/ESfEpjefmYx",
        "lat": "30.230762",
        "lng": "-97.8015497"
      }
    ],
    "Utah": [
      {
        "name": "Millcreek Gardens",
        "address": {
          "street1": "3500 South 900 East",
          "street2": "",
          "city": "Salt Lake City",
          "state": "UT",
          "zip": "84106"
        },
        "url": "http://www.millcreekgardens.com",
        "map": "https://goo.gl/maps/PT3o8eEsT3T2",
        "lat": "40.6953469",
        "lng": "-111.8681634"
      }
    ],
    "Virginia": [],
    "Vermont": [],
    "Washington": [
      {
        "name": "Charley's Greenhouse and Garden",
        "address": {
          "street1": "17979 SR 536",
          "street2": "",
          "city": "Mount Vernon",
          "state": "WA",
          "zip": "98373-3269"
        },
        "url": "http://www.charleysgreenhouse.com",
        "map": "https://goo.gl/maps/nhBynowACCA2",
        "lat": "48.4256606",
        "lng": "-122.3601066"
      },
      {
        "name": "Don Willis Furniture- Lake City",
        "address": {
          "street1": "10516 Lake City Way NE",
          "street2": "",
          "city": "Seattle",
          "state": "WA",
          "zip": "98125"
        },
        "url": "http://www.donwillisfurniture.com",
        "map": "https://goo.gl/maps/yojJu4Jotyj",
        "lat": "47.7053302",
        "lng": "-122.3034387"
      },
      {
        "name": "Greenhouse",
        "address": {
          "street1": "1235 Cornwall Ave",
          "street2": "",
          "city": "Bellingham",
          "state": "WA",
          "zip": "98225"
        },
        "url": "http://www.greenhousehome.com",
        "map": "https://goo.gl/maps/MMnB8ZBacTG2",
        "lat": "48.74977",
        "lng": "-122.4816544"
      },
      {
        "name": "Over the Fence",
        "address": {
          "street1": "112 E. Washington Street",
          "street2": "",
          "city": "Sequim",
          "state": "WA",
          "zip": "98382"
        },
        "url": "",
        "map": "https://goo.gl/maps/1N31vo8opB42",
        "lat": "48.0798242",
        "lng": "-123.1040924"
      },
      {
        "name": "Seattle Luxe",
        "address": {
          "street1": "15215 SE 272nd St.",
          "street2": "Suite 203",
          "city": "Kent",
          "state": "WA",
          "zip": "98042"
        },
        "url": "http://www.seattleluxe.com",
        "map": "https://goo.gl/maps/dC9NBA6KpBH2",
        "lat": "47.357504",
        "lng": "-122.1398528"
      },
      {
        "name": "Skagit Valley Gardens",
        "address": {
          "street1": "18923 Johnson Rd.",
          "street2": "",
          "city": "Mt. Vernon",
          "state": "WA",
          "zip": "98273"
        },
        "url": "http://www.skagitvalleygardens.com",
        "map": "https://goo.gl/maps/H2nvfjybbQ22",
        "lat": "48.35681",
        "lng": "-122.3408867"
      },
      {
        "name": "Sound Cedar Company",
        "address": {
          "street1": "2600 Cedardale Road",
          "street2": "",
          "city": "Mount Vernon",
          "state": "WA",
          "zip": "98274"
        },
        "url": "http://www.soundcedar.com",
        "map": "https://goo.gl/maps/tXDxNLQWiKN2",
        "lat": "48.4011735",
        "lng": "-122.330761"
      }
    ],
    "Wisconsin": [],
    "West Virginia": [],
    "Wyoming": []
  }
}
